location,country_code,latitude,longitude,confirmed,dead,recovered,updated
Italy,it,41.87194,12.56738,175927,23227,44927,2020-04-19 01:20:05.155111+00:00
United States,us,37.09024,-95.712891,739988,38928,66357,2020-04-19 01:20:04.968247+00:00
Artsakh,12,39.796249,46.6550799,5,0,0,2020-04-19 01:20:16.308872+00:00
Austria,at,47.516231,14.550072,14671,443,10214,2020-04-19 01:20:05.971767+00:00
Coral Princess,11,26.648165,-82.035419,12,2,0,2020-04-16 08:20:13.637832+00:00
Madagascar,mg,-18.766947,46.869107,120,0,35,2020-04-19 01:20:11.839215+00:00
Jordan,jo,30.585164,36.238414,413,7,269,2020-04-19 01:20:10.174720+00:00
Costa Rica,cr,9.748917,-83.753428,655,4,97,2020-04-19 01:20:09.558309+00:00
Belgium,be,50.503887,4.469936,37183,5453,8348,2020-04-19 01:20:05.498256+00:00
South Sudan,ss,6.8769919,31.3069788,4,0,0,2020-04-19 01:20:16.416847+00:00
Guantanamo Bay,10,19.9030921,-75.0966509,1,0,0,2020-04-19 01:20:16.968301+00:00
Qatar,qa,25.354826,51.183884,5008,8,510,2020-04-19 01:20:07.138574+00:00
Bosnia and Herzegovina,ba,43.915886,17.679076,1268,47,338,2020-04-19 01:20:22.405606+00:00
Northern Mariana Islands ,mp,15.0979,145.6739,14,2,0,2020-04-19 01:20:15.326343+00:00
Sao Tome and Principe,st,0.18636,6.613081,4,0,0,2020-04-19 01:20:28.178980+00:00
Colombia,co,4.570868,-74.297333,3621,166,691,2020-04-19 01:20:07.371704+00:00
USS Theodore Roosevelt ,09,0.0,0.0,589,1,0,2020-04-16 08:20:13.624740+00:00
Eswatini,sz,-26.522503,31.465866,22,1,8,2020-04-19 01:20:14.448771+00:00
Saint Pierre Miquelon,pm,46.8852,-56.3159,1,0,0,2020-04-19 01:20:28.298055+00:00
Algeria,dz,28.033886,1.659626,2534,367,894,2020-04-19 01:20:07.700788+00:00
Spain,es,40.463667,-3.74922,194416,20639,74797,2020-04-19 01:20:05.106511+00:00
Iran,ir,32.427908,53.688046,80868,5031,55987,2020-04-19 01:20:05.434418+00:00
Netherlands,nl,52.132633,5.291266,31589,3601,250,2020-04-19 01:20:05.721106+00:00
Abkhazia,06,43.0015544,41.023407,3,0,0,2020-04-19 01:20:16.466600+00:00
Transnistria,04,47.2152972,29.4638054,58,3,0,2020-04-08 10:20:29.734534+00:00
Australia,au,-25.274398,133.775136,6586,70,4167,2020-04-19 01:20:06.731676+00:00
Turks and Caicos,tc,21.694025,-71.797928,11,1,0,2020-04-19 01:20:27.512081+00:00
North Macedonia,mk,41.608635,21.745275,1170,49,164,2020-04-19 01:20:08.616875+00:00
Niger,ne,17.607789,8.081666,639,19,113,2020-04-19 01:20:09.595142+00:00
Malawi,mw,-13.254308,34.301525,17,2,3,2020-04-19 01:20:15.023965+00:00
El Salvador,sv,13.794185,-88.89653,190,7,43,2020-04-19 01:20:11.283217+00:00
Togo,tg,8.619543,0.824782,84,5,49,2020-04-19 01:20:12.322407+00:00
Falkland Islands,fk,-51.796253,-59.523613,11,0,3,2020-04-19 01:20:15.787908+00:00
Donetsk People's Republic,08,48.015883,37.80285,18,0,0,2020-04-11 15:00:28.299265+00:00
Luhansk People's Republic,07,48.574041,39.307815,8,0,1,2020-04-11 15:00:29.703543+00:00
Tajikistan,tj,38.861034,71.276093,0,0,0,2020-04-10 15:40:22.064363+00:00
Suriname,sr,3.919305,-56.027783,10,1,6,2020-04-19 01:20:15.893470+00:00
Vatican City,va,41.902916,12.453389,8,0,2,2020-04-19 01:20:16.020327+00:00
Kuwait,kw,29.31166,47.481766,1751,6,280,2020-04-19 01:20:08.105939+00:00
Armenia,am,40.069099,45.038189,1248,20,523,2020-04-19 01:20:08.485259+00:00
Afghanistan,af,33.93911,67.709953,933,31,112,2020-04-19 01:20:08.984387+00:00
Taiwan,tw,23.69781,120.960515,398,6,178,2020-04-19 01:20:10.247569+00:00
Venezuela,ve,6.42375,-66.58973,227,9,117,2020-04-19 01:20:11.139666+00:00
Rwanda,rw,-1.940278,29.873888,144,0,69,2020-04-19 01:20:11.526853+00:00
Republic of the Congo,cg,-0.228021,15.827659,143,6,11,2020-04-19 01:20:11.584040+00:00
Yemen,ye,15.552727,48.516388,1,0,0,2020-04-19 01:20:16.975931+00:00
Antigua and Barbuda,ag,17.060816,-61.796428,23,3,3,2020-04-19 01:20:26.704584+00:00
Cambodia,kh,12.565679,104.990963,122,0,103,2020-04-19 01:20:11.796359+00:00
Gabon,ga,-0.803689,11.609444,108,1,7,2020-04-19 01:20:11.884942+00:00
Guinea-Bissau,gw,11.803749,-15.180413,50,0,0,2020-04-19 01:20:13.446122+00:00
Saint Kitts and Nevis,kn,17.357822,-62.782998,14,0,0,2020-04-19 01:20:27.303003+00:00
Russia,ru,61.52401,105.318756,36793,313,3057,2020-04-19 01:20:05.550320+00:00
Japan,jp,36.204824,138.252924,10296,222,1069,2020-04-19 01:20:06.220166+00:00
Chile,cl,-35.675147,-71.542969,9730,126,4035,2020-04-19 01:20:06.271936+00:00
Ecuador,ec,-1.831239,-78.183406,9022,456,1008,2020-04-19 01:20:06.314554+00:00
Poland,pl,51.919438,19.145136,8742,347,981,2020-04-19 01:20:06.360688+00:00
Romania,ro,45.943161,24.96676,8418,421,1730,2020-04-19 01:20:06.403876+00:00
Benin,bj,9.30769,2.315834,35,1,18,2020-04-19 01:20:13.976318+00:00
Belize,bz,17.189877,-88.49765,18,2,0,2020-04-19 01:20:14.653756+00:00
East Timor,tl,-8.874217,125.727539,18,0,1,2020-04-19 01:20:14.705480+00:00
Botswana,bw,-22.328474,24.684866,15,1,0,2020-04-19 01:20:15.150597+00:00
Seychelles,sc,-4.679574,55.491977,11,0,5,2020-04-19 01:20:15.850098+00:00
Pakistan,pk,30.375321,69.345116,7638,143,1832,2020-04-19 01:20:06.493190+00:00
Hungary,hu,47.162494,19.5033041,1834,172,231,2020-04-19 01:20:07.903132+00:00
Luxembourg,lu,49.815273,6.129583,3537,72,601,2020-04-19 01:20:07.410844+00:00
Egypt,eg,26.820553,30.802498,3032,224,701,2020-04-19 01:20:07.500183+00:00
Thailand,th,15.870032,100.992541,2733,47,1787,2020-04-19 01:20:07.606587+00:00
British Virgin Islands,vg,18.420695,-64.639968,4,0,2,2020-04-19 01:20:16.507664+00:00
St. Vincent Grenadines,vc,12.984305,-61.287228,12,0,1,2020-04-19 01:20:27.470762+00:00
South Africa,za,-30.559482,22.937506,3034,48,903,2020-04-19 01:21:34.168540+00:00
Greece,gr,39.074208,21.824312,2235,110,269,2020-04-19 01:20:07.820640+00:00
Croatia,hr,45.1,15.2000001,1832,39,615,2020-04-19 01:20:07.957291+00:00
Bahrain,bh,26.0667,50.5577,1773,7,755,2020-04-19 01:20:08.001735+00:00
Iceland,is,64.963051,-19.020835,1760,9,1291,2020-04-19 01:20:08.055403+00:00
Iraq,iq,33.223191,43.679291,1513,82,953,2020-04-19 01:20:08.203526+00:00
Slovenia,si,46.151241,14.995463,1317,70,190,2020-04-19 01:20:08.443096+00:00
India,in,20.593684,78.96288,15722,521,2463,2020-04-19 01:20:05.883555+00:00
South Korea,kr,35.907757,127.766922,10653,232,7937,2020-04-19 01:20:06.177092+00:00
Philippines,ph,12.879721,121.774017,6087,397,516,2020-04-19 01:20:06.860481+00:00
Serbia,rs,44.016521,21.005859,5994,117,637,2020-04-19 01:20:06.933492+00:00
Singapore,sg,1.352083,103.819836,5992,11,740,2020-04-19 01:20:06.987442+00:00
Aruba,aw,12.52111,-69.968338,96,2,44,2020-04-19 01:20:12.013353+00:00
Bermuda,bm,32.3078,-64.7505,83,5,35,2020-04-19 01:20:12.359644+00:00
Cayman Islands,ky,19.3133,-81.2546,61,1,7,2020-04-19 01:20:12.801649+00:00
Libya,ly,26.3351,17.228331,49,1,11,2020-04-19 01:20:13.501807+00:00
Dominican Republic,do,18.735693,-70.162651,4335,217,312,2020-04-19 01:20:07.228875+00:00
Sierra Leone,sl,8.460555,-11.779889,30,0,0,2020-04-19 01:20:14.265551+00:00
Panama,pa,8.537981,-80.782127,4273,120,140,2020-04-19 01:20:07.270038+00:00
Curaçao,cw,12.16957,-68.99002,14,1,11,2020-04-19 01:20:15.245084+00:00
Montserrat,ms,16.742498,-62.187366,11,0,2,2020-04-19 01:20:15.818626+00:00
Zimbabwe,zw,-19.015438,29.154857,25,3,2,2020-04-19 01:20:14.314533+00:00
Laos,la,19.85627,102.495496,19,0,2,2020-04-19 01:20:14.500479+00:00
Fiji,fj,-17.713371,178.065032,17,0,0,2020-04-19 01:20:14.918918+00:00
Burundi,bi,-3.373056,29.918886,5,1,0,2020-04-19 01:20:16.373028+00:00
Greenland,gl,71.706936,-42.604303,11,0,11,2020-04-19 01:20:27.580702+00:00
United Arab Emirates,ae,23.424076,53.847818,6302,37,1188,2020-04-19 01:20:06.772623+00:00
Moldova,md,47.411631,28.369885,2378,60,391,2020-04-19 01:20:07.778303+00:00
Bangladesh,bd,23.684994,90.356331,2144,84,66,2020-04-19 01:20:07.862033+00:00
Kazakhstan,kz,48.019573,66.923684,1630,17,378,2020-04-19 01:20:08.159770+00:00
Lebanon,lb,33.854721,35.862285,672,21,99,2020-04-19 01:20:09.516095+00:00
Burkina Faso,bf,12.238333,-1.561593,565,36,321,2020-04-19 01:20:09.643140+00:00
San Marino,sm,43.94236,12.457777,455,39,60,2020-04-19 01:20:10.080215+00:00
Kenya,ke,-0.023559,37.906193,262,12,60,2020-04-19 01:20:10.681947+00:00
Faroe Islands,fo,61.892635,-6.9118061,184,0,173,2020-04-19 01:20:11.329097+00:00
Guadeloupe,gp,16.265,-61.551,148,8,73,2020-04-19 01:20:11.439157+00:00
French Guiana,gf,3.933889,-53.125782,96,0,64,2020-04-19 01:20:12.148905+00:00
Monaco,mc,43.7384176,7.4246158,94,3,22,2020-04-19 01:20:12.280282+00:00
Sudan,sd,12.862807,30.217636,66,10,6,2020-04-19 01:20:12.573370+00:00
Sint Maarten,sx,18.04248,-63.05483,64,9,12,2020-04-19 01:20:12.687726+00:00
Haiti,ht,18.971187,-72.285215,44,3,0,2020-04-19 01:20:13.683793+00:00
Eritrea,er,15.179384,39.782334,39,0,3,2020-04-19 01:20:13.732426+00:00
Mozambique,mz,-18.665695,35.529562,35,0,4,2020-04-19 01:20:14.076817+00:00
Denmark,dk,56.26392,9.501785,7242,346,3847,2020-04-19 01:20:06.588789+00:00
Czech Republic,cz,49.817492,15.472962,6654,181,1227,2020-04-19 01:20:06.680425+00:00
Malaysia,my,4.210484,101.975766,5305,88,3102,2020-04-19 01:20:07.027294+00:00
Gibraltar,gi,36.140751,-5.353585,132,0,111,2020-04-19 01:20:11.761669+00:00
Liberia,lr,6.428055,-9.429499,76,7,7,2020-04-19 01:20:12.479863+00:00
Guyana,gy,4.860416,-58.93018,63,6,9,2020-04-19 01:20:12.719579+00:00
Cape Verde,cv,16.5388,-23.0418,58,1,1,2020-04-19 01:20:12.967102+00:00
Syria,sy,34.802075,38.996815,38,2,5,2020-04-19 01:20:13.776157+00:00
Chad,td,15.454166,18.732207,33,0,8,2020-04-19 01:20:14.122620+00:00
Germany,de,51.165691,10.451526,143724,4538,85400,2020-04-19 01:20:05.202154+00:00
Nepal,np,28.394857,84.124008,31,0,3,2020-04-19 01:20:14.215100+00:00
United Kingdom,gb,55.378051,-3.435973,114217,15464,0,2020-04-19 01:20:05.242307+00:00
Åland Islands,ax,60.1785247,19.9156105,11,0,0,2020-04-17 23:00:20.215125+00:00
France,fr,46.227638,2.213749,151793,19323,35983,2020-04-19 01:20:05.301538+00:00
Brazil,br,-14.235004,-51.92528,36760,2368,14026,2020-04-19 01:20:05.607480+00:00
Switzerland,ch,46.818188,8.227512,27404,1368,17100,2020-04-19 01:20:05.773507+00:00
Ireland,ie,53.1423672,-7.6920536,14758,571,77,2020-04-19 01:20:05.928818+00:00
Angola,ao,-11.202692,17.873887,24,2,6,2020-04-19 01:20:14.394998+00:00
Dominica,dm,15.414999,-61.370976,16,0,8,2020-04-19 01:20:15.066559+00:00
Saint Lucia,lc,13.909444,-60.978893,15,0,11,2020-04-19 01:20:15.202751+00:00
Central African Republic,cf,6.611111,20.939444,12,0,4,2020-04-19 01:20:15.745486+00:00
Sweden,se,60.128161,18.643501,13822,1511,550,2020-04-19 01:20:06.085941+00:00
Israel,il,31.046051,34.851612,13265,164,3456,2020-04-19 01:20:06.130621+00:00
Gambia,gm,13.443182,-15.310139,9,1,2,2020-04-19 01:20:15.937581+00:00
MS Zaandam,03,0.0,0.0,9,2,0,2020-04-19 01:20:27.745382+00:00
Equatorial Guinea,gq,1.650801,10.267895,79,0,4,2020-04-19 01:20:12.397364+00:00
Uganda,ug,1.373333,32.290275,55,0,22,2020-04-19 01:20:13.241347+00:00
Maldives,mv,3.202778,73.22068,35,0,16,2020-04-19 01:20:14.027022+00:00
Mongolia,mn,46.862496,103.846656,31,0,5,2020-04-19 01:20:14.166504+00:00
Nicaragua,ni,12.865416,-85.207229,9,2,6,2020-04-19 01:20:15.977341+00:00
Mauritania,mr,21.00789,-10.940835,7,1,6,2020-04-19 01:20:16.059375+00:00
Bhutan,bt,27.514162,90.433601,5,0,2,2020-04-19 01:20:16.314898+00:00
Somaliland,05,9.4117434,46.8252838,5,0,0,2020-04-19 01:20:16.409134+00:00
China,cn,25.6113971,85.1392247,82735,4632,77062,2020-04-19 01:20:05.346174+00:00
Trinidad and Tobago,tt,10.691803,-61.222503,114,8,21,2020-04-19 01:20:24.994152+00:00
Morocco,ma,31.791702,-7.09262,2685,137,314,2020-04-19 01:20:07.655530+00:00
Uzbekistan,uz,41.377491,64.585262,1490,5,194,2020-04-19 01:20:08.356461+00:00
Lithuania,lt,55.169438,23.881275,1239,33,228,2020-04-19 01:20:08.526869+00:00
New Zealand,nz,-40.900557,174.885971,1422,11,912,2020-04-19 01:20:08.802064+00:00
Hong Kong,hk,22.3193039,114.1693611,1024,4,568,2020-04-19 01:20:08.909313+00:00
Ivory Coast,ci,7.539989,-5.54708,801,8,239,2020-04-19 01:20:09.230793+00:00
Djibouti,dj,11.825138,42.590275,732,2,76,2020-04-19 01:20:09.344997+00:00
Palestine,ps,31.952162,35.233154,418,2,69,2020-04-19 01:20:10.446007+00:00
Mali,ml,17.570692,-3.996166,216,13,41,2020-04-19 01:20:11.183985+00:00
Tanzania,tz,-6.369028,34.888822,147,5,11,2020-04-19 01:20:11.480801+00:00
Somalia,so,5.152149,46.199616,135,7,2,2020-04-19 01:20:11.719979+00:00
Ethiopia,et,9.145,40.489673,105,3,16,2020-04-19 01:20:11.929380+00:00
Azerbaijan,az,40.143105,47.576927,1373,18,590,2020-04-19 01:20:08.400809+00:00
New Caledonia,nc,-20.904305,165.618042,18,0,14,2020-04-19 01:20:14.779234+00:00
Namibia,na,-22.95764,18.49041,16,0,6,2020-04-19 01:20:15.107075+00:00
Grenada,gd,12.1165,-61.679,14,0,6,2020-04-19 01:20:15.280139+00:00
Papua New Guinea,pg,-6.314993,143.95555,7,0,0,2020-04-19 01:20:16.136870+00:00
Puerto Rico,pr,18.220833,-66.590149,1118,60,0,2020-04-19 01:20:08.660052+00:00
Albania,al,41.153332,20.168331,548,26,302,2020-04-19 01:20:09.685017+00:00
Saint Barthélemy,bl,17.9,-62.833333,6,0,5,2020-04-19 01:20:16.178293+00:00
Anguilla,ai,18.220554,-63.068615,3,0,1,2020-04-19 01:20:16.472630+00:00
Guinea,gn,9.945587,-9.696645,518,3,65,2020-04-19 01:20:09.833645+00:00
Réunion,re,-21.115141,55.536384,407,0,237,2020-04-19 01:20:10.216319+00:00
Sint Eustatius,bq,17.4890306,-62.973555,2,0,0,2020-04-19 01:20:16.932344+00:00
Turkey,tr,38.963745,35.243322,82329,1890,10453,2020-04-19 01:20:05.390183+00:00
Canada,ca,56.130366,-106.346771,33383,1470,11207,2020-04-19 01:20:05.670935+00:00
Portugal,pt,39.399872,-8.224454,19685,687,610,2020-04-19 01:20:05.818040+00:00
Saudi Arabia,sa,23.885942,45.079162,8274,92,1329,2020-04-19 01:20:06.447103+00:00
Vietnam,vn,14.058324,108.277199,268,0,201,2020-04-19 01:20:10.637201+00:00
Mayotte,yt,-12.8275,45.166244,254,4,117,2020-04-19 01:20:10.730860+00:00
Martinique,mq,14.641528,-61.024174,163,12,73,2020-04-19 01:20:11.407326+00:00
Mexico,mx,23.634501,-102.552784,7497,650,2125,2020-04-19 01:20:06.534068+00:00
Guam,gu,13.444304,144.793731,136,5,97,2020-04-19 01:20:11.678509+00:00
Myanmar,mm,21.916221,95.955974,107,5,5,2020-04-19 01:20:11.972000+00:00
Akrotiri and Dhekelia,02,34.5802786,32.9743145,10,0,0,2020-04-12 08:00:27.601715+00:00
Norway,no,60.472024,8.468946,7069,164,32,2020-04-19 01:20:06.639669+00:00
Bahamas,bs,25.03428,-77.39628,55,9,10,2020-04-19 01:20:13.057127+00:00
French Polynesia,pf,-17.679742,-149.406843,55,0,2,2020-04-19 01:20:13.108148+00:00
U.S. Virgin Islands,vi,18.335765,-64.896335,53,3,46,2020-04-19 01:20:13.300756+00:00
Indonesia,id,-0.789275,113.921327,6248,535,631,2020-04-19 01:20:06.819612+00:00
Finland,fi,61.92411,25.7481511,3681,90,1700,2020-04-19 01:20:07.320968+00:00
Montenegro,me,42.708678,19.37439,307,5,55,2020-04-19 01:20:10.544539+00:00
Jersey,je,49.214439,-2.13125,245,12,0,2020-04-19 01:20:10.810235+00:00
Paraguay,py,-23.442503,-58.443832,206,8,41,2020-04-19 01:20:11.233707+00:00
Northern Cyprus,00,35.2480359,33.6577243,108,3,52,2020-04-19 01:20:11.923416+00:00
Liechtenstein,li,47.166,9.555373,79,1,55,2020-04-19 01:20:12.438403+00:00
Saint Martin,mf,18.0708298,-63.0500809,37,2,19,2020-04-19 01:20:13.841988+00:00
Diamond Princess,01,40.8642959,-73.9614914,712,13,644,2020-04-19 01:20:23.084580+00:00
Peru,pe,-9.189967,-75.015152,14420,348,6684,2020-04-19 01:20:06.036013+00:00
Ukraine,ua,48.379433,31.1655799,5106,133,275,2020-04-19 01:20:07.078281+00:00
Argentina,ar,-38.416097,-63.616672,2839,132,685,2020-04-19 01:20:07.560348+00:00
Estonia,ee,58.595272,25.0136071,1512,38,162,2020-04-19 01:20:08.286058+00:00
Slovakia,sk,48.669026,19.699024,1089,11,213,2020-04-19 01:20:08.859240+00:00
Bulgaria,bg,42.733883,25.48583,878,41,153,2020-04-19 01:20:09.078736+00:00
Tunisia,tn,33.886917,9.537499,866,37,43,2020-04-19 01:20:09.131583+00:00
Latvia,lv,56.879635,24.603189,712,5,88,2020-04-19 01:20:09.386567+00:00
Andorra,ad,42.506285,1.521801,704,35,205,2020-04-19 01:20:09.441348+00:00
Bolivia,bo,-16.290154,-63.588653,520,32,31,2020-04-19 01:20:09.779265+00:00
Uruguay,uy,-32.522779,-55.765835,517,9,298,2020-04-19 01:20:09.873466+00:00
Kyrgyzstan,kg,41.20438,74.766098,506,5,130,2020-04-19 01:20:09.980655+00:00
DR Congo,cd,-4.038333,21.758664,307,25,26,2020-04-19 01:20:10.501457+00:00
Isle of Man,im,54.236107,-4.548056,297,6,180,2020-04-19 01:20:10.589685+00:00
Sri Lanka,lk,7.873054,80.771797,254,7,86,2020-04-19 01:20:10.765148+00:00
Guernsey,gg,49.4481982,-2.58949,239,9,87,2020-04-19 01:20:10.954396+00:00
Guatemala,gt,15.783471,-90.230759,235,7,21,2020-04-19 01:20:11.085709+00:00
Jamaica,jm,18.109581,-77.297508,163,5,25,2020-04-19 01:20:11.368792+00:00
Brunei,bn,4.535277,114.727669,137,1,113,2020-04-19 01:20:11.632212+00:00
Belarus,by,53.709807,27.953389,4779,45,458,2020-04-19 01:20:07.187264+00:00
Barbados,bb,13.193887,-59.543198,75,5,17,2020-04-19 01:20:12.532544+00:00
Zambia,zm,-13.133897,27.849332,57,2,33,2020-04-19 01:20:13.012948+00:00
Macau,mo,22.198745,113.543873,45,0,16,2020-04-19 01:20:13.548986+00:00
Oman,om,21.4735329,55.975413,1180,6,176,2020-04-19 01:20:08.567055+00:00
Cameroon,cm,7.369722,12.354722,1017,42,305,2020-04-19 01:20:08.944011+00:00
Cuba,cu,21.521757,-77.781167,986,32,227,2020-04-19 01:20:09.037226+00:00
Ghana,gh,7.946527,-1.023194,834,9,99,2020-04-19 01:20:09.176887+00:00
Cyprus,cy,35.126413,33.429859,761,12,79,2020-04-19 01:20:09.284104+00:00
Nigeria,ng,9.081999,8.675277,542,19,166,2020-04-19 01:20:09.724727+00:00
Kosovo,xk,42.6026359,20.902977,510,12,93,2020-04-19 01:20:09.923496+00:00
Honduras,hn,15.199999,-86.241905,457,46,10,2020-04-19 01:20:10.028302+00:00
Malta,mt,35.937496,14.375416,426,3,99,2020-04-19 01:20:10.137952+00:00
Georgia,ge,32.1656221,-82.9000751,388,4,86,2020-04-19 01:20:10.301897+00:00
Senegal,sn,14.497401,-14.452362,350,3,211,2020-04-19 01:20:10.356917+00:00
Mauritius,mu,-20.348404,57.552152,325,9,180,2020-04-19 01:20:10.402104+00:00
